[
  {
    "id": "LS-001",
    "name": "灵山大照壁",
    "description": "灵山胜境的标志性入口，以赵朴初先生题写的鎏金“灵山胜境”四字为核心，是游客开启禅意之旅的首处打卡景观。",
    "openingInfo": "全天开放",
    "lng": 120.102498,
    "lat": 31.421388,
    "coordinateLevel": "verified",
    "coordinateNote": "用户提供的真实高德坐标。",
    "image": "./jpg/ls-001.jpg",
    "imageTitle": "天下第一壁/灵山大照壁",
    "imageSource": "佛教导航《灵山胜境》图集"
  },
  {
    "id": "LS-002",
    "name": "五明桥",
    "description": "五座汉白玉石桥横跨香水海，象征声明、因明、内明、医方明和工巧明五种智慧，是进入核心景区的必经通道。",
    "openingInfo": "全天开放，免费通行",
    "lng": 120.102243,
    "lat": 31.421745,
    "coordinateLevel": "verified",
    "coordinateNote": "用户提供的真实高德坐标。",
    "image": "./jpg/ls-002.jpg",
    "imageTitle": "五明桥",
    "imageSource": "佛教导航《灵山胜境》图集"
  },
  {
    "id": "LS-003",
    "name": "佛足坛",
    "description": "以释迦牟尼佛足印为主题，足心刻有多种吉祥纹样，象征佛的福德与智慧圆满，是重要的祈福朝圣点。",
    "openingInfo": "全天开放",
    "lng": 120.101497,
    "lat": 31.422728,
    "coordinateLevel": "verified",
    "coordinateNote": "用户提供的真实高德坐标。",
    "image": "./jpg/ls-003.jpg",
    "imageTitle": "佛足坛",
    "imageSource": "佛教导航《灵山胜境》图集"
  },
  {
    "id": "LS-004",
    "name": "五智门",
    "description": "核心景区的汉白玉牌坊门户，五门象征五方五佛，六柱寓意六度波罗蜜，营造庄严肃穆的朝圣氛围。",
    "openingInfo": "全天开放",
    "lng": 120.101302,
    "lat": 31.423051,
    "coordinateLevel": "verified",
    "coordinateNote": "用户提供的真实高德坐标。",
    "image": "./jpg/ls-004.jpg",
    "imageTitle": "五智门",
    "imageSource": "佛教导航《灵山胜境》图集"
  },
  {
    "id": "LS-005",
    "name": "菩提大道",
    "description": "连接五智门与九龙灌浴的中轴步道，两侧菩提树形成清幽林荫，寓意由尘世喧嚣走向内心觉悟。",
    "openingInfo": "全天开放",
    "lng": 120.101142,
    "lat": 31.42318,
    "coordinateLevel": "verified",
    "coordinateNote": "用户提供的真实高德坐标。",
    "image": "./jpg/ls-005.jpg",
    "imageTitle": "菩提大道",
    "imageSource": "佛教导航《灵山胜境》图集"
  },
  {
    "id": "LS-006",
    "name": "九龙灌浴",
    "description": "灵山胜境代表性动态景观，通过莲花绽放、太子佛升起和九龙喷水，再现“花开见佛、九龙沐浴”的佛诞传说。",
    "openingInfo": "平日常见场次：10:00、11:30、13:30、15:00，具体以景区公告为准",
    "lng": 120.099979,
    "lat": 31.424595,
    "coordinateLevel": "verified",
    "coordinateNote": "用户提供的真实高德坐标。",
    "image": "./jpg/ls-006.jpg",
    "imageTitle": "九龙灌浴",
    "imageSource": "佛教导航《灵山胜境》图集"
  },
  {
    "id": "LS-007",
    "name": "降魔浮雕",
    "description": "大型佛教故事石雕，表现佛陀在菩提树下战胜诱惑与威胁、最终觉悟成佛的历程，寓意坚守本心。",
    "openingInfo": "全天开放",
    "lng": 120.099566,
    "lat": 31.425553,
    "coordinateLevel": "verified",
    "coordinateNote": "用户提供的真实高德坐标。",
    "image": "./jpg/ls-007.jpg",
    "imageTitle": "降魔浮雕",
    "imageSource": "佛教导航《灵山胜境》图集"
  },
  {
    "id": "LS-008",
    "name": "阿育王柱",
    "description": "仿古印度阿育王石柱建造，柱头四狮朝向四方，象征佛法传播与和平、包容、普度的佛教精神。",
    "openingInfo": "全天开放",
    "lng": 120.099263,
    "lat": 31.426179,
    "coordinateLevel": "verified",
    "coordinateNote": "用户提供的真实高德坐标。",
    "image": "./jpg/ls-008.jpg",
    "imageTitle": "阿育王柱",
    "imageSource": "佛教导航《灵山胜境》图集"
  },
  {
    "id": "LS-009",
    "name": "百子戏弥勒",
    "description": "弥勒佛与百名孩童组成的青铜群雕，以欢喜、包容和慈悲为主题，寓意家庭和睦、多福安康。",
    "openingInfo": "全天开放",
    "lng": 120.098842,
    "lat": 31.427189,
    "coordinateLevel": "verified",
    "coordinateNote": "用户提供的真实高德坐标。",
    "image": "./jpg/ls-009.jpg",
    "imageTitle": "百子戏弥勒",
    "imageSource": "佛教导航《灵山胜境》图集"
  },
  {
    "id": "LS-010",
    "name": "祥符禅寺",
    "description": "始建于唐代的江南禅宗古刹，拥有大雄宝殿、钟鼓楼、古井和千年银杏，是景区重要的礼佛与历史文化场所。",
    "openingInfo": "全天开放，宗教活动及钟声表演以现场公告为准",
    "lng": 120.098014,
    "lat": 31.427944,
    "coordinateLevel": "verified",
    "coordinateNote": "用户提供的真实高德坐标。",
    "image": "./jpg/ls-010.jpg",
    "imageTitle": "祥符禅寺区域/祥符三桥",
    "imageSource": "佛教导航《灵山胜境》图集"
  },
  {
    "id": "LS-011",
    "name": "灵山大佛",
    "description": "高88米的露天青铜释迦牟尼佛像，是灵山胜境的核心地标。游客可登临佛脚平台，俯瞰景区与太湖风光。",
    "openingInfo": "通常随景区开放，具体以官方当日公告为准",
    "lng": 120.096477,
    "lat": 31.430194,
    "coordinateLevel": "verified",
    "coordinateNote": "用户提供的真实高德坐标。",
    "image": "./jpg/ls-011.jpg",
    "imageTitle": "灵山大佛",
    "imageSource": "佛教导航《灵山胜境》图集"
  },
  {
    "id": "LS-012",
    "name": "佛教文化博览馆",
    "description": "位于灵山大佛座基内，通过佛像、法器、互动屏和沉浸式投影介绍佛教历史及四大名山文化，三层设有万佛殿。",
    "openingInfo": "通常8:00—17:00，冬季可能提前闭馆",
    "lng": 120.096394,
    "lat": 31.430365,
    "coordinateLevel": "verified",
    "coordinateNote": "用户提供的真实高德坐标。",
    "image": "./jpg/ls-012.jpg",
    "imageTitle": "佛博馆",
    "imageSource": "佛教导航《灵山胜境》图集"
  },
  {
    "id": "LS-013",
    "name": "灵山梵宫",
    "description": "融合佛教建筑、敦煌艺术和多种传统工艺的大型艺术殿堂，被誉为“东方卢浮宫”，并设有《灵山吉祥颂》演出。",
    "openingInfo": "通常9:00—17:00；演出场次以景区公告为准",
    "lng": 120.102418,
    "lat": 31.428207,
    "coordinateLevel": "verified",
    "coordinateNote": "用户提供的真实高德坐标。",
    "image": "./jpg/ls-013.jpg",
    "imageTitle": "灵山梵宫",
    "imageSource": "去哪儿攻略《灵山梵宫》图集"
  },
  {
    "id": "LS-014",
    "name": "五印坛城",
    "description": "香水海中的藏式建筑群，以五方五佛的五种手印为文化主题，设有主殿、唐卡展厅和转经筒长廊。",
    "openingInfo": "通常9:00—17:00，转经筒长廊开放情况以现场为准",
    "lng": 120.103055,
    "lat": 31.424678,
    "coordinateLevel": "verified",
    "coordinateNote": "用户提供的真实高德坐标。",
    "image": "./jpg/ls-014.jpg",
    "imageTitle": "五印坛城",
    "imageSource": "Trip.com《五印坛城》游记图片"
  },
  {
    "id": "LS-015",
    "name": "曼飞龙塔",
    "description": "仿云南西双版纳曼飞龙白塔建造，由一座主塔和八座小塔组成，集中展现南传佛教建筑与傣族艺术特色。",
    "openingInfo": "全天开放",
    "lng": 120.10461,
    "lat": 31.426046,
    "coordinateLevel": "verified",
    "coordinateNote": "用户提供的真实高德坐标。",
    "image": "./jpg/ls-015.jpg",
    "imageTitle": "曼飞龙塔",
    "imageSource": "去哪儿攻略《灵山胜境-曼飞龙塔》图集"
  },
  {
    "id": "LS-016",
    "name": "无尽意斋",
    "description": "纪念赵朴初先生的人文展馆，展示其与灵山的渊源及对佛教文化的贡献，同时提供禅茶与静心休憩体验。",
    "openingInfo": "通常9:00—17:00",
    "lng": 120.09699,
    "lat": 31.428766,
    "coordinateLevel": "verified",
    "coordinateNote": "用户提供的真实高德坐标。",
    "image": "./jpg/ls-016.jpg",
    "imageTitle": "无尽意斋",
    "imageSource": "佛教导航《灵山胜境》图集"
  }
]
